[
  {
    "name": "Pelican Restaurant",
    "street": "351 SW Flagler Ave",
    "city": "Stuart",
    "state": "FL",
    "zip": "34994",
    "url": "http://www.pelicancafeandbeach.com/",
    "pos": {"lat":27.202319,"lng":-80.257691}
  },
  {
    "name": "Flagler Park",
    "street": "201 SW Flagler Ave",
    "city": "Stuart",
    "state": "FL",
    "zip": "34994",
    "url": "http://www.cityofstuart.us/index.php/en/flagler-park",
    "pos": {"lat":27.201703,"lng":-80.256858}
  },
  {
    "name": "Shepard Park",
    "street": "600 SW Flagler Ave",
    "city": "Stuart",
    "state": "FL",
    "zip": "34994",
    "url": "http://www.cityofstuart.us/index.php/en/shepard-park",
    "pos": {"lat":27.197096,"lng":-80.258604}
  },
  {
    "name": "Terra Fermata",
    "street": "26 SE 6th St",
    "city": "Stuart",
    "state": "FL",
    "zip": "34994",
    "url": "http://terrafermata.com/",
    "pos": {"lat":27.194631,"lng":-80.252192}
  },
  {
    "name": "Osceola Street Cafe",
    "street": "26 SW Osceola St",
    "city": "Stuart",
    "state": "FL",
    "zip": "34994",
    "url": "https://www.osceolastreet.com/",
    "pos": {"lat":27.198703,"lng":-80.253513}
  },
  {
    "name": "Lyric Theatre",
    "street": "59 SW Flagler Ave",
    "city": "Stuart",
    "state": "FL",
    "zip": "34994",
    "url": "https://www.osceolastreet.com/",
    "pos": {"lat":27.199411,"lng":-80.254380}
  },
  {
    "name": "Gilbert's Coffee Bar",
    "street": "615 SW Anchorage Way",
    "city": "Stuart",
    "state": "FL",
    "zip": "34994",
    "url": "https://www.gilbertscoffeebar.com/",
    "pos": {"lat":27.200302,"lng":-80.258161}
  },
  {
    "name": "Lady Ann's Tea Room",
    "street": "506 SW Camden Ave",
    "city": "Stuart",
    "state": "FL",
    "zip": "34994",
    "url": "https://www.ladyannstearoom.com/menus/",
    "pos": {"lat":27.195930,"lng":-80.253831}
  }
]
